City_ID,City,Lat,Lng,Max Temp,Humidity,Cloudiness,Wind Speed,Country,Date
0,Barrow,71.2906,-156.7887,42.82,87,100,10.36,US,1655932720
1,Puerto Ayora,-0.7393,-90.3518,78.76,90,59,10.0,EC,1655933253
2,Rikitea,-23.1203,-134.9692,74.95,77,39,12.1,PF,1655933254
3,Ushuaia,-54.8,-68.3,37.06,87,40,28.77,AR,1655933255
4,Cape Town,-33.9258,18.4232,60.12,92,88,2.3,ZA,1655933255
5,Coyhaique,-45.5752,-72.0662,34.41,74,0,0.0,CL,1655933053
6,Edd,13.9297,41.6925,90.61,53,57,4.38,ER,1655933256
7,Lorengau,-2.0226,147.2712,80.15,79,63,2.19,PG,1655933257
8,Kapaa,22.0752,-159.319,82.38,87,100,12.66,US,1655932998
9,Hobart,-42.8794,147.3294,53.22,81,75,5.75,AU,1655932517
10,Faya,18.3851,42.4509,71.71,50,87,3.02,SA,1655933258
11,Bethel,41.3712,-73.414,63.64,91,100,1.99,US,1655932923
12,Mataura,-46.1927,168.8643,28.47,73,100,2.8,NZ,1655932671
13,Tuktoyaktuk,69.4541,-133.0374,62.6,45,75,6.91,CA,1655932836
14,Aklavik,68.2191,-135.0107,66.2,48,40,2.3,CA,1655933259
15,Hofn,64.2539,-15.2082,49.46,58,33,15.77,IS,1655932830
16,Punta Arenas,-53.15,-70.9167,37.51,81,75,6.91,CL,1655932626
17,Sola,-13.8833,167.55,74.07,100,100,0.0,VU,1655933260
18,Tiksi,71.6872,128.8694,41.86,56,11,17.11,RU,1655933260
19,New Norfolk,-42.7826,147.0587,53.89,81,100,2.86,AU,1655932751
20,Knysna,-34.0363,23.0471,62.76,63,100,5.46,ZA,1655933261
21,Hermanus,-34.4187,19.2345,55.8,82,97,6.98,ZA,1655932837
22,Jishou,28.3167,109.7167,74.17,98,100,1.97,CN,1655933262
23,Alice Springs,-23.7,133.8833,36.95,93,0,4.61,AU,1655933003
24,Champerico,14.3,-91.9167,88.34,75,100,10.74,GT,1655933263
25,Matara,5.9485,80.5353,77.99,88,99,8.61,LK,1655933263
26,Bengkulu,-3.8004,102.2655,74.39,93,100,5.75,ID,1655933264
27,Yellowknife,62.456,-114.3525,68.56,28,20,12.66,CA,1655933190
28,Jamestown,42.097,-79.2353,85.64,61,20,16.11,US,1655933060
29,Bredasdorp,-34.5322,20.0403,60.58,69,99,6.06,ZA,1655933265
30,Tabuk,17.4189,121.4443,72.55,90,100,2.59,PH,1655933265
31,Bathsheba,13.2167,-59.5167,84.81,74,40,10.36,BB,1655933266
32,Atuona,-9.8,-139.0333,77.41,67,53,19.57,PF,1655933267
33,Katsuura,35.1333,140.3,69.85,95,100,8.97,JP,1655933267
34,Kaitangata,-46.2817,169.8464,33.24,70,75,3.94,NZ,1655932750
35,Ancud,-41.8697,-73.8203,42.22,70,83,7.4,CL,1655933084
36,Ust'Ye,59.6304,39.736,47.91,84,2,4.94,RU,1655933268
37,Christchurch,-43.5333,172.6333,34.41,100,35,0.0,NZ,1655933189
38,Qaanaaq,77.484,-69.3632,39.67,61,10,1.3,GL,1655933269
39,Thompson,55.7435,-97.8558,75.36,33,40,10.36,CA,1655933270
40,Albany,42.6001,-73.9662,65.91,81,95,4.0,US,1655932997
41,Nur-Sultan,51.1801,71.446,57.15,67,0,8.95,KZ,1655933271
42,Butaritari,3.0707,172.7902,81.19,77,98,10.65,KI,1655932678
43,Antofagasta,-23.65,-70.4,60.08,65,80,3.94,CL,1655933272
44,Hilo,19.7297,-155.09,80.33,74,100,8.05,US,1655933272
45,Celendín,-6.8703,-78.1517,61.32,59,61,6.49,PE,1655933273
46,Yangi Marg`Ilon,40.4272,71.7189,71.01,49,94,3.49,UZ,1655933273
47,Elko,41.0002,-115.5012,86.65,7,97,5.01,US,1655933334
48,Rørvik,64.8621,11.2373,51.91,100,75,20.71,NO,1655933334
49,Itoman,26.1247,127.6694,81.37,94,20,8.05,JP,1655933335
50,Jardim,-21.4803,-56.1381,79.72,46,42,6.82,BR,1655933335
51,Saint George,37.1041,-113.5841,97.43,12,0,6.91,US,1655933336
52,Busselton,-33.65,115.3333,61.2,86,100,7.54,AU,1655933336
53,Hasaki,35.7333,140.8333,70.29,95,100,8.19,JP,1655933337
54,Saskylakh,71.9167,114.0833,49.21,45,35,10.22,RU,1655933337
55,Adrar,20.5022,-10.0711,93.49,27,2,14.2,MR,1655933337
56,Chui,-33.6971,-53.4616,49.82,64,90,13.13,UY,1655933338
57,Kajaani,64.2273,27.7285,57.25,88,75,4.61,FI,1655933339
58,Sørland,67.667,12.6934,48.06,89,100,33.98,NO,1655933339
59,Pevek,69.7008,170.3133,44.24,57,100,18.1,RU,1655933340
60,Lompoc,34.6391,-120.4579,74.84,73,0,14.97,US,1655933341
61,Castro,-24.7911,-50.0119,62.51,83,1,6.85,BR,1655933341
62,Puerto Escondido,15.85,-97.0667,81.43,61,100,11.5,MX,1655933342
63,Zhangye,38.9342,100.4517,70.79,40,0,6.38,CN,1655933342
64,Ribeira Grande,38.5167,-28.7,65.28,84,76,19.01,PT,1655933343
65,Talnakh,69.4865,88.3972,69.21,43,99,4.76,RU,1655932920
66,Nagorsk,59.3172,50.8078,51.12,98,97,3.62,RU,1655933344
67,Mossamedes,-15.1961,12.1522,62.01,72,0,2.35,AO,1655933344
68,Avarua,-21.2078,-159.775,80.65,83,75,14.97,CK,1655933345
69,Acapulco De Juárez,16.8634,-99.8901,78.62,89,100,11.5,MX,1655932714
70,Marabu,4.4148,114.0089,77.14,94,40,2.3,MY,1655933346
71,Comodoro Rivadavia,-45.8667,-67.5,35.46,60,0,3.44,AR,1655933346
72,Gizo Government Station,-8.103,156.8419,81.91,75,10,5.03,SB,1655933347
73,Lindi,-10.0,39.7167,64.69,88,0,4.59,TZ,1655933347
74,Roboré,-18.3333,-59.75,89.69,48,78,6.91,BO,1655933348
75,Bluff,-46.6,168.3333,28.8,71,100,8.28,NZ,1655933349
76,Talaya,61.3833,152.75,56.23,75,85,10.18,RU,1655933349
77,East London,-33.0153,27.9116,65.07,80,89,17.09,ZA,1655933350
78,Port Elizabeth,-33.918,25.5701,59.09,93,97,1.14,ZA,1655933351
79,Constitución,-35.3333,-72.4167,53.96,81,100,10.74,CL,1655933222
80,Flin Flon,54.7682,-101.865,73.24,40,100,14.97,CA,1655933352
81,Pochutla,15.7432,-96.4661,80.82,72,100,3.56,MX,1655933352
82,Vaini,-21.2,-175.2,73.56,68,20,10.36,TO,1655933353
83,Ponta Do Sol,32.6667,-17.1,68.72,70,54,8.12,PT,1655933353
84,Kahului,20.8947,-156.47,78.82,74,40,17.27,US,1655933354
85,Hithadhoo,-0.6,73.0833,83.64,70,71,8.97,MV,1655932642
86,Izumo,35.3667,132.7667,73.35,94,75,6.91,JP,1655933355
87,Saldanha,-33.0117,17.9442,60.85,91,85,5.55,ZA,1655933356
88,Hutchinson,38.0608,-97.9298,86.04,64,40,10.36,US,1655933112
89,San-Pédro,4.7485,-6.6363,76.23,87,87,6.42,CI,1655933357
90,Mbandaka,0.0487,18.2603,70.63,93,99,3.2,CD,1655933357
91,Ahipara,-35.1667,173.1667,50.5,69,5,4.97,NZ,1655933358
92,Geraldton,-28.7667,114.6,52.21,100,4,12.66,AU,1655933419
93,Anaconda,46.1285,-112.9423,77.99,24,5,11.43,US,1655933419
94,Palmer,42.1584,-72.3287,63.95,94,100,4.61,US,1655933319
95,Robertsport,6.7533,-11.3686,79.5,80,88,10.0,LR,1655933420
96,Carnarvon,-24.8667,113.6333,67.57,79,5,13.11,AU,1655932842
97,Vao,-22.6667,167.4833,71.56,64,100,18.1,NC,1655933422
98,Fairfield,41.2668,-73.3162,63.1,95,100,6.91,US,1655933141
99,Kuril'Sk,45.2333,147.8833,49.5,88,75,4.7,RU,1655933422
100,Auki,-8.7676,160.7034,82.29,73,78,3.38,SB,1655933423
101,Prymors'K,46.7348,36.3443,57.88,81,92,9.69,UA,1655933424
102,Narganá,9.4428,-78.5906,80.04,81,100,1.99,PA,1655933424
103,Sioux Lookout,50.1001,-91.917,71.67,40,40,10.36,CA,1655933425
104,Clyde River,70.4692,-68.5914,39.43,93,40,6.91,CA,1655932929
105,Johnston,35.5335,-78.3997,99.57,39,40,4.61,US,1655933426
106,San Vicente,-26.6167,-54.1333,64.15,91,5,4.63,AR,1655933427
107,Shebunino,46.4339,141.8603,52.36,89,100,8.3,RU,1655933427
108,Yar-Sale,66.8333,70.8333,64.33,71,7,5.59,RU,1655933428
109,Cayenne,4.9333,-52.3333,83.08,12,0,2.3,GF,1655932794
110,Gbarnga,6.9956,-9.4722,71.06,99,39,2.93,LR,1655933429
111,Niquero,20.0431,-77.5828,84.54,66,31,4.14,CU,1655933429
112,Esim,4.8699,-2.2405,74.53,93,100,5.88,GH,1655933430
113,Chokurdakh,70.6333,147.9167,40.96,55,73,14.65,RU,1655933430
114,Shar,49.5886,81.0453,71.92,43,31,7.23,KZ,1655933431
115,Plainview,40.7765,-73.4673,64.26,83,100,6.91,US,1655933431
116,Riberalta,-10.9833,-66.1,88.0,58,40,0.0,BO,1655933432
117,Crossville,35.949,-85.0269,94.19,40,0,11.5,US,1655933433
118,Faanui,-16.4833,-151.75,80.64,64,10,12.21,PF,1655932919
119,Mujiayingzi,42.1167,118.7833,61.63,80,2,6.26,CN,1655932834
120,Nyazepetrovsk,56.0531,59.6028,50.68,96,12,2.91,RU,1655933434
121,Mokhsogollokh,61.4681,128.9203,67.59,54,0,3.33,RU,1655933435
122,Mahébourg,-20.4081,57.7,68.29,83,75,10.36,MU,1655933435
123,Mweka,-4.85,21.5667,68.41,63,27,0.96,CD,1655933436
124,San Luis,-33.295,-66.3356,42.98,71,99,6.87,AR,1655933436
125,Samarai,-10.6167,150.6667,79.59,82,98,14.5,PG,1655932933
126,Varhaug,58.6147,5.6457,56.86,94,97,4.21,NO,1655933437
127,Bintulu,3.1667,113.0333,75.61,100,20,3.44,MY,1655933437
128,Half Moon Bay,37.4636,-122.4286,102.88,52,0,16.11,US,1655933438
129,Chapais,49.7834,-74.8492,73.18,45,7,14.9,CA,1655933438
130,Klaksvík,62.2266,-6.589,50.92,86,87,23.78,FO,1655933439
131,Lebu,-37.6167,-73.65,47.97,91,100,7.78,CL,1655932840
132,Altay,47.8667,88.1167,69.3,33,1,8.08,CN,1655933440
133,Longyearbyen,78.2186,15.6401,44.44,65,75,13.8,SJ,1655933440
134,Banjar,-8.19,114.9675,75.94,87,95,3.33,ID,1655933441
135,Eureka,40.8021,-124.1637,93.67,69,16,7.0,US,1655933328
136,Udachny,66.4167,112.4,66.45,63,32,4.47,RU,1655933442
137,Pāvilosta,56.8879,21.1859,49.91,88,15,5.77,LV,1655933443
138,Banjaran,-7.0453,107.5878,68.04,91,100,2.39,ID,1655933503
139,São Filipe,14.8961,-24.4956,76.24,88,44,4.85,CV,1655933504
140,Yulara,-25.2406,130.9889,48.81,56,0,7.34,AU,1655933505
141,Porangatu,-13.4408,-49.1486,76.66,37,32,2.86,BR,1655933505
142,Provideniya,64.3833,-173.3,41.36,100,100,11.18,RU,1655933506
143,Severo-Kuril'Sk,50.6789,156.125,46.67,90,82,16.93,RU,1655933507
144,Oudtshoorn,-33.5907,22.2014,61.16,67,100,4.38,ZA,1655933507
145,Kataysk,56.289,62.5841,55.72,91,2,11.81,RU,1655933508
146,Kamaishi,39.2667,141.8833,66.45,78,72,7.14,JP,1655933509
147,Bhadrāchalam,17.6667,80.8833,79.27,81,98,3.69,IN,1655933509
148,Nikolskoye,59.7035,30.7861,53.49,67,50,1.1,RU,1655933510
149,Southbridge,42.0751,-72.0334,72.43,85,74,7.0,US,1655933511
150,Menongue,-14.6585,17.691,55.13,43,1,1.7,AO,1655933511
151,Rengo,-34.4167,-70.8667,57.52,75,100,2.44,CL,1655933361
152,Lüderitz,-26.6481,15.1594,56.19,73,0,5.32,NA,1655932936
153,Upernavik,72.7868,-56.1549,33.84,87,100,10.58,GL,1655933512
154,Port Hardy,50.6996,-127.4199,57.38,62,40,14.97,CA,1655933357
155,Malé,4.1748,73.5089,82.35,89,75,3.44,MV,1655933341
156,Jumla,29.2747,82.1838,56.84,94,20,1.07,NP,1655933513
157,Tuatapere,-46.1333,167.6833,39.25,70,96,4.38,NZ,1655933514
158,Mar Del Plata,-38.0023,-57.5575,46.09,58,75,9.22,AR,1655933515
159,Jagatsinghapur,20.2667,86.1667,79.16,78,85,4.23,IN,1655933515
160,Raja,8.4596,25.678,72.91,76,49,4.83,SS,1655933415
161,Leh,34.1667,77.5833,52.54,52,61,3.76,IN,1655933476
162,Jerantut,3.936,102.3626,72.09,97,99,0.74,MY,1655933516
163,Bandi̇̄Pur,27.9333,84.4167,67.64,91,6,2.13,NP,1655933517
164,Saint-Pierre,-21.3393,55.4781,65.88,55,75,8.05,RE,1655933517
165,Fortuna,40.5982,-124.1573,72.86,69,0,1.01,US,1655933518
166,Kushiro,42.975,144.3747,54.03,92,100,4.54,JP,1655933519
167,Forsytheganj,52.6333,29.7333,57.15,84,99,10.6,BY,1655933519
168,Havelock,34.8791,-76.9013,86.05,79,94,5.99,US,1655933466
169,Cabo San Lucas,22.8909,-109.9124,95.61,48,20,13.8,MX,1655933456
170,Camocim,-2.9022,-40.8411,77.65,83,33,11.63,BR,1655933430
171,Tianpeng,30.9866,103.9393,78.73,87,100,4.5,CN,1655933520
172,Beirut,33.8889,35.4944,75.94,83,75,2.3,LB,1655933355
173,El Seibo,18.7641,-69.0375,87.33,65,100,3.2,DO,1655933521
174,Acaraú,-2.8856,-40.12,76.78,86,56,11.34,BR,1655933426
175,Islamkot,24.6997,70.177,88.23,54,21,6.44,PK,1655933522
176,Magway,20.15,94.9167,79.99,75,96,10.67,MM,1655933523
177,Sur,22.5667,59.5289,85.26,71,5,19.35,OM,1655933523
178,Moravský Beroun,49.7937,17.4421,60.35,67,100,4.43,CZ,1655933524
179,Amoy,24.4798,118.0819,80.65,89,0,4.47,CN,1655933525
180,Qaqortoq,60.7167,-46.0333,47.01,57,0,4.23,GL,1655933525
181,Bambous Virieux,-20.3428,57.7575,68.25,83,75,10.36,MU,1655932930
182,Port Macquarie,-31.4333,152.9167,51.04,65,1,4.12,AU,1655933527
183,Xining,36.6167,101.7667,56.19,78,10,2.26,CN,1655933588
184,Saint Paul Harbor,57.79,-152.4072,63.91,55,0,4.61,US,1655933322
185,Port Alfred,-33.5906,26.891,63.09,85,80,13.0,ZA,1655933588
186,Broome,42.2506,-75.833,74.17,77,100,16.11,US,1655933589
187,Deori,21.45,82.6167,78.1,87,100,2.39,IN,1655933590
188,Mīzan Teferī,6.9833,35.5833,60.28,97,95,3.13,ET,1655933590
189,Inongo,-1.95,18.2667,69.17,89,68,2.37,CD,1655933591
190,Yanam,16.7333,82.2167,82.08,77,100,5.08,IN,1655933592
191,Port Blair,11.6667,92.75,81.77,79,100,8.86,IN,1655933593
192,Nemuro,43.3236,145.575,49.17,92,100,9.64,JP,1655933593
193,Dikson,73.5069,80.5464,38.55,87,100,14.94,RU,1655933594
194,Purranque,-40.9167,-73.1667,43.93,84,83,1.77,CL,1655933594
195,Srednekolymsk,67.45,153.6833,50.77,89,100,16.2,RU,1655933595
196,Khon Kaen,16.5,102.0833,76.93,80,100,3.09,TH,1655933596
197,Azuaga,38.2667,-5.6833,64.96,67,100,6.08,ES,1655933597
198,George Town,5.4112,100.3354,78.89,93,40,3.44,MY,1655933597
199,Santa Cruz De La Sierra,-17.8,-63.1667,84.25,48,20,20.71,BO,1655933456
200,Shambu,9.5667,37.1,49.66,89,80,1.86,ET,1655933598
201,Wanning,18.8003,110.3967,80.49,91,99,8.01,CN,1655933599
202,Tsogni,-2.7942,10.0988,68.27,90,11,5.59,GA,1655933599
203,Martyush,56.4,61.8819,54.81,93,2,11.27,RU,1655933600
204,Cabimas,10.3883,-71.4399,87.17,62,79,7.11,VE,1655933600
205,Kloulklubed,7.0419,134.2556,75.7,70,98,6.29,PW,1655933601
206,Palmas Bellas,9.2319,-80.0867,82.02,83,100,9.26,PA,1655933602
207,Grindavik,63.8424,-22.4338,46.35,93,75,11.5,IS,1655933603
208,Bilibino,68.0546,166.4372,61.48,36,97,17.0,RU,1655933603
209,Tasiilaq,65.6145,-37.6368,41.16,76,6,5.41,GL,1655933604
210,Awjilah,29.1081,21.2869,79.81,52,0,13.15,LY,1655933604
211,Narasannapeta,18.4167,84.05,81.39,78,100,4.09,IN,1655933605
212,Poso,-1.3959,120.7524,76.21,83,100,3.76,ID,1655933606
213,Aketi,2.7388,23.7833,67.89,97,93,1.63,CD,1655933606
214,Raudeberg,61.9875,5.1352,52.95,93,100,29.24,NO,1655933607
215,Esperance,-33.8667,121.9,57.02,86,27,11.86,AU,1655933607
216,Marawi,7.9986,124.2928,69.06,93,100,2.98,PH,1655933608
217,Arraial Do Cabo,-22.9661,-42.0278,71.56,88,0,9.22,BR,1655933609
218,Kikwit,-5.041,18.8162,71.44,92,83,1.39,CD,1655933609
219,Cockburn Town,21.4612,-71.1419,84.16,65,40,11.5,TC,1655933610
220,São Félix Do Xingu,-6.6447,-51.995,79.29,61,95,2.37,BR,1655933611
221,Solnechnyy,50.7214,136.6319,62.42,97,96,4.63,RU,1655933611
222,Meulaboh,4.1363,96.1285,74.59,90,100,4.88,ID,1655933612
223,Homer,59.6425,-151.5483,72.77,66,0,10.36,US,1655933612
224,Bay Roberts,47.5999,-53.2648,69.66,69,39,10.58,CA,1655933613
225,Coroico,-16.1889,-67.7271,60.87,92,96,1.68,BO,1655933614
226,Yekaterinovka,52.0508,44.3451,60.3,92,52,4.61,RU,1655933614
227,Abashiri,44.0213,144.2697,53.94,87,100,12.06,JP,1655933675
228,Smyrna,33.884,-84.5144,99.1,39,20,12.66,US,1655933676
229,Khatanga,71.9667,102.5,50.9,51,91,14.85,RU,1655933676
230,Ferkessédougou,9.6,-5.2,74.44,88,88,3.47,CI,1655933677
231,Kraśnik,50.9236,22.2271,62.28,68,100,4.76,PL,1655933678
232,Umba,66.6871,34.3429,47.66,83,99,13.35,RU,1655933678
233,Sirsi,14.6167,74.85,69.98,96,100,3.96,IN,1655933679
234,Henties Bay,-22.116,14.2845,55.36,84,0,9.89,NA,1655933680
235,Falam,22.9167,93.6833,63.7,98,100,3.27,MM,1655933680
236,Lata,40.1629,-8.3327,60.93,95,22,1.05,PT,1655933681
237,Pine Bluff,34.2284,-92.0032,98.33,44,75,3.44,US,1655933681
238,The Valley,18.217,-63.0578,85.86,70,20,10.36,AI,1655933682
239,Chengde,40.9725,117.9361,64.96,89,3,4.25,CN,1655933683
240,Torbay,47.6666,-52.7314,68.88,56,40,13.8,CA,1655933683
241,Westerland,54.9079,8.3033,57.22,82,100,3.44,DE,1655933684
242,Lamar,33.6668,-95.5836,94.91,43,40,8.05,US,1655933684
243,Zheleznodorozhnyy,55.7503,38.0042,61.21,81,2,8.5,RU,1655933685
244,Nagato,34.3833,131.2,76.01,88,36,9.46,JP,1655933686
245,Turukhansk,65.8167,87.9833,66.81,53,8,9.53,RU,1655933686
246,Touros,-5.1989,-35.4608,75.24,89,100,8.23,BR,1655933687
247,Norman Wells,65.282,-126.8329,71.64,37,20,13.8,CA,1655933687
248,Iskar,43.45,24.2667,73.26,53,20,9.22,BG,1655933688
249,Xiongyue,40.1774,122.1228,68.79,98,100,2.06,CN,1655933688
250,Pitimbu,-7.4706,-34.8086,72.19,85,100,7.07,BR,1655933689
251,Hamilton,39.1834,-84.5333,81.57,56,29,10.27,US,1655933529
252,Flinders,-34.5833,150.8552,53.06,78,50,1.99,AU,1655933690
253,Leningradskiy,69.3833,178.4167,47.66,58,58,10.09,RU,1655933691
254,Vólakas,41.3167,24.0,62.83,81,96,4.0,GR,1655933691
255,Beloha,-25.1667,45.05,61.16,63,54,11.74,MG,1655933692
256,Wanxian,30.8039,108.3897,79.5,96,100,2.3,CN,1655933444
257,Krasnosel'Kup,65.7,82.4667,67.03,55,48,10.54,RU,1655933693
258,North Platte,41.1239,-100.7654,89.11,33,0,10.36,US,1655933693
259,Praia Da Vitória,38.7333,-27.0667,66.76,88,40,15.7,PT,1655933694
260,İskilip,40.7353,34.4739,57.43,67,0,6.64,TR,1655933694
261,Abhā,18.2164,42.5053,71.42,68,0,0.0,SA,1655933695
262,Zyryanka,65.75,150.85,60.17,64,98,19.35,RU,1655933695
263,Lavrentiya,65.5833,-171.0,42.66,93,100,8.1,RU,1655933696
264,Altagracia De Orituco,9.8601,-66.3814,80.85,71,71,2.17,VE,1655933697
265,Ahvāz,31.3203,48.6693,94.95,20,3,11.5,IR,1655933697
266,Coffs Harbour,-30.3,153.1333,42.76,100,0,3.44,AU,1655933698
267,Gallup,35.5281,-108.7426,75.96,48,100,11.5,US,1655933465
268,Itapirapuã,-15.8233,-50.6133,76.26,26,25,3.4,BR,1655933699
269,Lugovskoy,56.9585,64.529,59.27,90,100,10.58,RU,1655933699
270,Iqaluit,63.7506,-68.5145,42.53,70,75,9.22,CA,1655933700
271,Saint Anthony,45.0205,-93.218,86.11,43,75,11.5,US,1655933701
272,Duminichi,53.9345,35.1099,59.25,75,93,12.26,RU,1655933701
273,Nanortalik,60.1432,-45.2371,42.13,74,2,19.17,GL,1655933762
274,Devils Lake,48.1128,-98.8651,80.94,39,0,13.8,US,1655933762
275,Kiryat Gat,31.61,34.7642,75.88,100,1,3.06,IL,1655933763
276,Berbera,10.4396,45.0143,91.85,40,100,26.98,SO,1655933763
277,Codrington,-38.2667,141.9667,51.76,92,100,15.55,AU,1655933764
278,Uturoa,-16.7333,-151.4333,80.49,63,8,12.06,PF,1655933765
279,Cidreira,-30.1811,-50.2056,61.7,96,98,8.37,BR,1655933766
280,Gombong,-7.6072,109.5142,74.07,93,66,2.89,ID,1655933766
281,Makkah Al Mukarramah,21.4267,39.8261,85.41,41,13,6.17,SA,1655933767
282,Constantine,36.365,6.6147,80.01,38,0,6.91,DZ,1655933767
283,Pangnirtung,66.1451,-65.7125,42.8,87,20,8.05,CA,1655933768
284,Boa Vista,2.8197,-60.6733,82.38,74,75,4.61,BR,1655933769
285,Airai,-8.9266,125.4092,55.44,87,80,3.38,TL,1655933769
286,Fairbanks,64.8378,-147.7164,76.01,44,40,10.36,US,1655933598
287,Chifeng,42.2683,118.9636,65.25,72,6,4.7,CN,1655933770
288,Noumea,-22.2763,166.4572,70.0,99,100,6.13,NC,1655933771
289,Nkoteng,4.5167,12.0333,67.77,99,97,3.56,CM,1655933771
290,Genoa,44.4129,8.9573,76.42,83,20,3.44,IT,1655933772
291,Chekhov,55.1431,37.4711,60.75,78,39,9.64,RU,1655933773
292,Mastic Beach,40.7668,-72.8521,62.85,96,100,5.01,US,1655933773
293,Tran,42.8353,22.6517,61.34,88,87,2.89,BG,1655933774
294,San Andrés,12.5847,-81.7006,82.42,83,75,12.66,CO,1655933573
295,Isangel,-19.55,169.2667,73.51,78,40,6.91,VU,1655933775
296,Palana,59.1167,159.9667,42.53,91,98,10.47,RU,1655933775
297,Tamandaré,-8.7597,-35.1047,75.27,92,100,5.5,BR,1655933776
298,Saint-Raymond,45.467,-73.6095,75.42,66,75,20.71,CA,1655933585
299,Erzin,36.9559,36.2,72.03,82,0,3.15,TR,1655933776
300,Soyo,-6.1349,12.3689,70.61,86,24,7.4,AO,1655933777
301,Lamu,-2.2717,40.902,75.42,76,46,20.38,KE,1655933778
302,Aripuanã,-9.1667,-60.6333,77.77,50,88,2.59,BR,1655933778
303,Gornyy,55.1153,83.9059,57.92,93,42,5.28,RU,1655933779
304,Marsh Harbour,26.5412,-77.0636,78.26,57,100,12.39,BS,1655933735
305,Tura,25.5198,90.2201,73.06,98,76,4.74,IN,1655933780
306,Hong Kong,22.2855,114.1577,84.38,86,24,5.99,HK,1655933512
307,Juru,5.312,100.4423,78.91,92,40,3.44,MY,1655933780
308,Kavieng,-2.5744,150.7967,82.15,73,100,4.29,PG,1655933781
309,Orlik,52.5178,99.825,52.38,75,60,3.69,RU,1655933782
310,Sitka,57.0531,-135.33,51.69,87,75,3.44,US,1655933782
311,Port Perry,44.1068,-78.9444,85.3,69,34,17.05,CA,1655933723
312,Ballina,-28.8667,153.5667,54.01,97,48,5.55,AU,1655933783
313,Hambantota,6.1241,81.1185,77.34,100,40,4.61,LK,1655933784
314,Ji’An,27.1172,114.9793,75.61,93,52,5.44,CN,1655933784
315,Lagos,6.5833,3.75,79.12,96,100,5.77,NG,1655933616
316,Mnogovershinnyy,53.9353,139.9242,63.05,71,65,4.07,RU,1655933785
317,Dingle,10.9995,122.6711,76.93,88,99,4.05,PH,1655933786
318,Omboué,-1.5746,9.2618,70.02,85,10,7.7,GA,1655933786
319,Maxixe,-23.8597,35.3472,66.85,71,91,8.59,MZ,1655933710
320,Arrifes,37.7667,-25.7,63.23,82,40,28.77,PT,1655933787
321,Osa,57.2829,55.4567,54.05,94,59,2.86,RU,1655933788
322,Takoradze,4.8845,-1.7554,74.23,94,100,7.4,GH,1655933848
323,Aljezur,37.3191,-8.8033,61.09,84,14,4.5,PT,1655933849
324,Raffadali,37.4036,13.5331,82.4,45,83,2.35,IT,1655933728
325,San Ramon,37.7799,-121.978,97.48,26,0,12.66,US,1655933850
326,Saint Andrews,34.0454,-81.1293,102.29,23,40,10.36,US,1655933850
327,Belvedere Marittimo,39.6179,15.8617,78.12,61,80,2.68,IT,1655933851
328,Saint-Philippe,-21.3585,55.7679,65.79,72,2,7.29,RE,1655933852
329,Charters Towers,-20.1,146.2667,57.29,69,0,6.73,AU,1655933853
330,Port Lincoln,-34.7333,135.8667,55.83,66,100,16.73,AU,1655933853
331,Yaan,7.3833,8.5667,73.69,91,67,8.9,NG,1655933854
332,Labuan,5.2767,115.2417,79.16,94,20,2.3,MY,1655933855
333,Khatīma,28.9167,79.9667,85.41,46,6,3.24,IN,1655933855
334,Vardø,70.3705,31.1107,42.78,100,100,9.22,NO,1655933856
335,De-Kastri,51.4667,140.7833,51.69,94,100,8.25,RU,1655933857
336,Laguna,38.421,-121.4238,101.75,19,0,12.66,US,1655933857
337,Bubaque,11.2833,-15.8333,81.72,82,99,12.17,GW,1655933858
338,Hailey,43.5196,-114.3153,84.88,25,0,11.5,US,1655933858
339,Mayumba,-3.432,10.6554,69.15,89,14,5.53,GA,1655933859
340,Newport,51.5877,-2.9984,70.09,66,1,5.53,GB,1655933712
341,Harper,4.375,-7.7169,77.0,87,86,7.99,LR,1655933860
342,Puerto Suárez,-18.95,-57.8,88.16,55,0,10.36,BO,1655933861
343,Ushtobe,45.2514,77.9838,78.58,30,100,7.45,KZ,1655933861
344,Boali,4.8005,18.1275,70.39,96,47,0.83,CF,1655933862
345,Te Anau,-45.4167,167.7167,35.6,78,71,0.92,NZ,1655933863
346,Tabou,4.423,-7.3528,76.98,86,87,7.78,CI,1655933863
347,Kidal,18.4411,1.4078,96.53,13,18,7.18,ML,1655933864
348,Cherskiy,68.75,161.3,61.61,41,100,20.76,RU,1655933864
349,Nueve De Julio,-35.4444,-60.8831,41.85,46,100,6.76,AR,1655933798
350,Cortez,37.3489,-108.5859,74.16,47,40,16.11,US,1655933865
351,Niono,14.2526,-5.993,81.1,63,100,9.73,ML,1655933866
352,Anchorage,61.2181,-149.9003,77.86,47,0,9.22,US,1655933628
353,Ternate,0.8,127.4,79.92,82,85,5.3,ID,1655933867
354,Santiago Del Estero,-27.7951,-64.2615,51.87,54,86,6.4,AR,1655933868
355,Hualmay,-11.0964,-77.6139,64.63,73,6,11.59,PE,1655933868
356,Carupano,10.6678,-63.2585,81.57,77,16,11.86,VE,1655933869
357,Kuito,-12.3833,16.9333,58.96,52,24,2.59,AO,1655933869
358,Drumnadrochit,57.3344,-4.4799,58.57,94,52,8.72,GB,1655933870
359,Ust-Nera,64.5667,143.2,62.82,67,32,8.77,RU,1655933871
360,Nome,64.5011,-165.4064,44.67,93,100,13.8,US,1655933598
361,Riohacha,11.5444,-72.9072,87.91,70,40,8.05,CO,1655933585
362,Makakilo City,21.3469,-158.0858,82.72,56,75,16.11,US,1655933872
363,Bowen,-20.0167,148.2333,61.83,74,31,10.83,AU,1655933873
364,Houma,29.5958,-90.7195,95.0,58,0,4.61,US,1655933651
365,Sidi Ali,36.0998,0.4206,66.61,83,98,4.41,DZ,1655933873
366,Podgorica,42.4411,19.2636,76.78,65,0,1.14,ME,1655933645
367,Umluj,25.0213,37.2685,79.79,61,0,9.91,SA,1655933874
368,Ampanihy,-24.7,44.75,58.86,71,11,12.35,MG,1655935731
369,Souillac,-20.5167,57.5167,70.12,74,39,11.52,MU,1655935731
370,Shimoda,34.6667,138.95,71.1,92,88,7.63,JP,1655935732
371,Urusha,54.05,122.9,57.85,98,100,4.16,RU,1655935732
372,Qasigiannguit,68.8193,-51.1922,37.65,97,98,2.59,GL,1655935733
373,Mogadishu,2.0371,45.3438,77.81,76,65,18.41,SO,1655935733
374,Dunedin,-45.8742,170.5036,42.8,70,61,3.0,NZ,1655935734
375,Dobrinka,52.1653,40.4731,59.83,97,95,8.23,RU,1655935734
376,Princeton,25.5384,-80.4089,85.01,63,0,14.97,US,1655935735
377,Keetmanshoop,-26.5833,18.1333,48.27,74,0,5.48,NA,1655935735
378,Kismayo,-0.3582,42.5454,77.27,76,62,19.04,SO,1655935736
379,Shingū,33.7333,135.9833,76.39,82,0,1.81,JP,1655935736
380,Mayo,38.8876,-76.5119,79.11,84,100,11.5,US,1655935737
381,Potam,27.6,-110.3833,98.47,35,2,16.75,MX,1655935737
382,Bathurst,-33.4166,149.5806,39.43,94,25,1.7,AU,1655935646
383,Powell River,49.8496,-124.5361,69.01,56,21,10.6,CA,1655935738
384,Philadelphia,39.9523,-75.1638,69.21,86,100,9.22,US,1655935731
385,San Policarpo,12.1791,125.5072,81.05,79,100,5.28,PH,1655935715
386,Todos Santos,23.45,-110.2167,79.45,59,40,7.78,MX,1655935739
387,São José Da Coroa Grande,-8.8978,-35.1478,74.77,94,100,6.08,BR,1655935739
388,Couëron,47.2151,-1.7217,65.01,91,0,3.44,FR,1655935740
389,Léo,11.1,-2.1,75.31,77,45,2.8,BF,1655935740
390,Summerside,46.3959,-63.7876,66.47,69,16,13.38,CA,1655935648
391,Bonavista,48.6499,-53.1147,53.91,82,52,3.09,CA,1655935741
392,Moyale,3.5167,39.0584,68.58,69,100,10.29,KE,1655935742
393,Tautira,-17.7333,-149.15,79.0,76,10,12.28,PF,1655935743
394,Mayor Pablo Lagerenza,-19.9309,-60.7718,80.87,41,36,2.95,PY,1655935743
395,Cerro Punta,8.85,-82.5667,57.09,89,100,0.6,PA,1655935744
396,Lagoa,39.05,-27.9833,64.4,84,100,15.12,PT,1655935744
397,Kruisfontein,-34.0033,24.7314,57.88,61,99,5.91,ZA,1655935723
398,Irsha,55.9269,94.7911,56.35,77,49,0.72,RU,1655935745
399,Kenitra,34.261,-6.5802,66.96,74,0,2.71,MA,1655935746
400,Sisophon,13.5859,102.9737,76.91,89,100,3.6,KH,1655935746
401,Thinadhoo,0.5333,72.9333,83.48,70,94,6.31,MV,1655935747
402,Kutum,14.2,24.6667,84.63,16,92,13.24,SD,1655935747
403,Tessalit,20.1986,1.0114,97.36,11,87,9.33,ML,1655935505
404,Uruçuí,-7.2294,-44.5561,80.67,34,2,7.18,BR,1655935748
405,Guarapuava,-25.3953,-51.4581,59.27,95,0,4.12,BR,1655935749
406,Tymovskoye,50.8456,142.655,55.2,83,100,8.86,RU,1655935749
407,Biak,-0.9131,122.8766,75.2,87,100,5.21,ID,1655935750
408,Chulumani,-16.4096,-67.5263,63.48,89,96,2.73,BO,1655935750
409,Alofi,-19.0595,-169.9187,78.69,78,75,10.36,NU,1655935751
410,Vanimo,-2.6741,141.3028,78.31,85,33,4.7,PG,1655935751
411,Soc Trang,9.6033,105.98,78.39,87,100,0.92,VN,1655935752
412,Mehamn,71.0357,27.8492,40.95,93,20,8.05,NO,1655936713
413,Itamaraju,-17.0392,-39.5311,67.21,96,30,3.58,BR,1655936713
414,Mitchell,43.7094,-98.0298,88.11,31,0,4.61,US,1655936714
415,Floirac,44.8324,-0.5141,66.02,84,0,2.3,FR,1655936449
416,Laas,46.6166,10.7002,65.28,91,88,2.8,IT,1655936715
417,Kavaratti,10.5669,72.642,82.08,79,99,20.38,IN,1655936715
418,Taksimo,56.3444,114.8794,53.53,90,100,2.57,RU,1655936716
419,Warmbad,-28.45,18.7333,53.76,77,94,11.45,NA,1655936717
420,Bandarbeyla,9.4942,50.8122,76.75,84,90,30.33,SO,1655936717
421,Narón,43.5167,-8.1528,63.03,92,100,2.01,ES,1655936718
422,Russell,32.3502,-85.1999,100.11,23,0,10.36,US,1655936719
423,Werda,-25.2667,23.2833,51.48,60,72,5.23,BW,1655936720
424,Tarrafal,15.2833,-23.7667,77.79,89,84,9.84,CV,1655936720
425,Nærbø,58.6667,5.65,56.98,93,98,3.89,NO,1655936721
426,Semporna,4.4818,118.6112,78.84,83,76,2.35,MY,1655936722
427,Uyemskiy,64.4743,40.8524,41.05,100,20,0.0,RU,1655936723
428,Trincomalee,8.5711,81.2335,81.34,72,100,19.57,LK,1655936724
429,Dorado,18.4588,-66.2677,85.33,81,75,17.27,PR,1655936725
430,Ulaangom,49.9811,92.0667,63.01,57,8,0.13,MN,1655936725
431,Veverská Bítýška,49.2759,16.4369,68.81,65,100,3.0,CZ,1655936726
432,Coahuayana Viejo,18.7333,-103.6833,84.94,67,100,5.19,MX,1655936729
433,Slavyanka,42.8633,131.3847,57.54,99,100,7.76,RU,1655936729
434,Constanța,44.1833,28.65,65.08,58,3,8.86,RO,1655936730
435,Santiago,-33.4569,-70.6483,56.86,59,100,9.22,CL,1655936709
436,Presidencia Roque Sáenz Peña,-26.7852,-60.4388,52.48,70,100,5.75,AR,1655936731
437,Rafai,4.95,23.9167,68.0,97,71,0.63,CF,1655936731
438,Beringovskiy,63.05,179.3167,47.8,80,100,10.6,RU,1655936732
439,Baft,29.234,56.6057,68.29,39,20,3.47,IR,1655936732
440,Araouane,18.9048,-3.5265,100.11,16,34,8.97,ML,1655936733
441,Krutinka,56.0055,71.5113,56.37,95,75,17.58,RU,1655936527
442,Husavik,66.0449,-17.3389,39.52,81,100,18.12,IS,1655936734
443,Berlevåg,70.8578,29.0864,41.0,85,100,6.89,NO,1655936734
444,Kangaatsiaq,68.3065,-53.4641,35.47,94,100,6.26,GL,1655936735
445,Kemijärvi,66.7131,27.4306,44.15,80,100,4.79,FI,1655936735
446,Quilmaná,-12.95,-76.3833,63.59,75,44,5.82,PE,1655936736
447,Coxim,-18.5067,-54.76,77.85,38,7,4.25,BR,1655936566
448,Marzuq,14.4,46.4667,84.67,28,92,5.84,YE,1655936737
449,Kochi,9.9399,76.2602,76.98,82,100,1.72,IN,1655936737
450,Pidhorodne,48.5753,35.1068,53.94,83,91,2.73,UA,1655936738
451,Emerald,-23.5333,148.1667,55.35,72,0,9.31,AU,1655936541
452,Cabedelo,-6.9811,-34.8339,72.27,85,100,6.69,BR,1655936738
453,Sindor,62.8629,51.8905,50.86,91,100,5.08,RU,1655936739
454,Bugiri,0.5714,33.7417,64.04,85,23,3.98,UG,1655936741
455,Kasongo-Lunda,-6.4667,16.8167,71.04,85,65,0.38,CD,1655936809
456,Mezen',65.8522,44.24,39.25,85,6,4.41,RU,1655936810
457,Peniche,39.3558,-9.3811,63.28,87,10,4.27,PT,1655936810
458,Davidson,36.1501,-86.7833,100.51,37,40,11.5,US,1655936623
459,Pīpri,19.8,75.5333,77.65,79,100,1.12,IN,1655936871
460,Calderitas,18.55,-88.25,87.91,66,20,5.75,MX,1655936872
461,Ustka,54.5805,16.8619,48.65,90,1,5.06,PL,1655936872
462,Shaunavon,49.6501,-108.4181,74.98,36,41,16.6,CA,1655936873
463,Zile,40.3031,35.8864,58.46,85,60,4.5,TR,1655936873
464,Parola,20.8833,75.1167,81.99,70,100,4.41,IN,1655936874
465,Maravilha,-26.7608,-53.1725,62.62,93,4,5.48,BR,1655936874
466,Northam,51.0333,-4.2167,62.38,83,0,2.8,GB,1655936875
467,Tomatlán,19.9333,-105.25,86.65,60,100,7.54,MX,1655936876
468,Hīt,33.6416,42.8251,85.95,30,0,9.08,IQ,1655936876
469,Warri,5.5167,5.75,72.68,98,99,3.42,NG,1655936877
470,Córdoba,-31.4135,-64.1811,44.24,79,0,6.91,AR,1655936877
471,Srīvardhan,18.0333,73.0167,76.37,94,100,2.98,IN,1655936878
472,Lensk,60.7253,114.9278,61.61,48,100,2.51,RU,1655936878
473,Sept-Îles,50.2001,-66.3821,57.06,90,100,16.11,CA,1655936716
474,Hare Bay,48.8499,-54.0148,67.35,80,94,6.64,CA,1655936879
475,Tommot,58.9564,126.2925,63.66,85,71,4.12,RU,1655936880
476,Ejura,7.3856,-1.3562,72.41,92,100,3.76,GH,1655936880
477,Clarksburg,39.2807,-80.3445,91.51,64,100,5.17,US,1655936696
478,Örnsköldsvik,63.2909,18.7153,52.3,95,88,7.14,SE,1655936881
479,Caniço,32.6333,-16.85,67.01,79,40,10.36,PT,1655936881
480,Plettenberg Bay,-34.0527,23.3716,63.1,62,100,6.17,ZA,1655936882
481,Waingapu,-9.6567,120.2641,76.32,76,16,14.05,ID,1655936883
482,Melilla,35.2937,-2.9383,71.98,56,20,8.05,ES,1655936884
483,Safranbolu,41.2508,32.6942,55.31,92,0,1.72,TR,1655936873
484,Narsaq,60.9167,-46.05,57.42,48,0,2.08,GL,1655936885
485,Barcelona,41.3888,2.159,76.78,86,0,5.75,ES,1655936885
486,Viedma,-40.8135,-62.9967,37.98,55,9,4.18,AR,1655936886
487,Mahajanga,-15.7167,46.3167,64.42,68,0,5.75,MG,1655936887
488,Bara,10.3744,10.7288,78.33,61,100,3.4,NG,1655936887
489,Ishigaki,24.3448,124.1572,84.33,89,1,6.91,JP,1655936888
490,Skibbereen,51.55,-9.2667,55.11,91,16,5.21,IE,1655936889
491,Vutcani,46.4667,27.9667,60.94,59,56,13.11,RO,1655936890
492,Bakchar,57.0186,82.0711,54.34,97,32,4.76,RU,1655936890
493,Vila Franca Do Campo,37.7167,-25.4333,65.19,82,69,10.54,PT,1655936891
494,Bafoulabé,13.8065,-10.8321,82.17,63,99,14.14,ML,1655936892
495,Balakhninskiy,58.0106,114.2769,53.71,94,98,2.1,RU,1655936893
496,Chumikan,54.7183,135.315,40.44,98,100,1.81,RU,1655936894
497,Sistranda,63.7256,8.834,53.56,88,100,26.6,NO,1655936894
498,Haines Junction,60.7522,-137.5108,58.95,72,100,6.91,CA,1655936895
499,Mergen,49.1833,125.2167,67.91,78,10,2.3,CN,1655936896
500,Nuuk,64.1835,-51.7216,39.81,87,75,8.05,GL,1655936897
501,Indramayu,-6.3264,108.32,78.3,82,91,7.31,ID,1655936761
502,Sabha,27.0377,14.4283,88.68,13,0,16.11,LY,1655936897
503,Pisco,-13.7,-76.2167,60.85,82,100,10.36,PE,1655936688
504,Yokadouma,3.5167,15.05,68.11,99,75,0.36,CM,1655936898
505,Sorong,-0.8833,131.25,78.85,83,52,7.63,ID,1655936900
506,College,64.8569,-147.8028,75.58,40,75,8.05,US,1655936900
507,Imeni Poliny Osipenko,52.4201,136.4853,61.66,95,100,3.96,RU,1655936961
508,Río Gallegos,-51.6226,-69.2181,35.65,80,0,23.02,AR,1655936962
509,Ibrā’,22.6906,58.5334,80.26,72,0,6.58,OM,1655936962
510,Muyinga Province,-2.8333,30.3333,57.42,62,39,3.69,BI,1655936963
511,Murchison,-41.8,172.3333,42.82,60,100,1.14,NZ,1655936963
512,Salina Cruz,16.1667,-95.2,82.98,71,100,10.07,MX,1655936835
513,Rønnede,55.2571,12.0212,53.29,91,100,5.46,DK,1655936964
514,Wuwei,37.9281,102.6414,65.19,48,0,4.5,CN,1655936964
515,Bridlington,54.0831,-0.1919,64.89,89,65,10.47,GB,1655936965
516,Whitianga,-36.8333,175.7,53.82,71,15,5.66,NZ,1655936965
517,Dhankutā,26.9833,87.3333,68.54,91,58,1.86,NP,1655936966
518,Miracema Do Tocantins,-9.5618,-48.3967,82.29,41,73,3.94,BR,1655936967
519,Guarapari,-20.6667,-40.4975,72.9,92,4,8.84,BR,1655936968
520,Honningsvåg,70.9821,25.9704,42.55,93,20,9.22,NO,1655936968
521,Nyurba,63.2842,118.3319,66.42,56,35,4.07,RU,1655936969
522,Klyuchi,52.2667,79.1667,66.34,47,2,8.34,RU,1655936969
523,Lyngseidet,69.5763,20.2189,46.4,72,100,13.35,NO,1655936970
524,Kodinsk,58.6881,99.1844,57.38,61,100,2.8,RU,1655936970
525,Bolobo,-2.1667,16.2333,72.59,84,64,1.43,CD,1655936971
526,Igarka,67.4667,86.5833,67.41,50,2,6.89,RU,1655936972
527,Pala,9.3642,14.9046,77.92,71,20,4.52,TD,1655936972
528,Coron,11.9986,120.2043,77.88,89,100,4.72,PH,1655936973
529,Zhaotong,27.3167,103.7167,64.11,97,100,1.95,CN,1655936973
530,Karratha,-20.7377,116.8463,69.22,36,0,11.45,AU,1655936974
531,Uauá,-9.8414,-39.4817,77.49,50,43,13.02,BR,1655936974
532,Andenes,69.3143,16.1194,49.98,76,75,4.61,NO,1655936975
533,Oussouye,12.485,-16.5469,84.38,80,92,8.52,SN,1655936975
534,Ostrovnoy,68.0531,39.5131,52.66,76,100,13.22,RU,1655936980
535,Kysyl-Syr,63.8986,122.7617,67.21,60,67,4.99,RU,1655936981
536,Xinzhi,36.4989,111.7047,73.98,84,31,0.27,CN,1655936981
537,Tirunelveli,8.7333,77.7,81.1,66,99,10.16,IN,1655936982
538,Aksha,50.2814,113.2867,57.42,75,42,6.8,RU,1655936983
539,Lerwick,60.1545,-1.1494,51.8,95,100,24.07,GB,1655936983
540,San Patricio,28.017,-97.5169,95.18,39,4,15.12,US,1655936984
541,Vilyuysk,63.7553,121.6247,67.35,60,84,3.89,RU,1655936984
542,Yārāda,17.65,83.2667,80.92,94,40,3.44,IN,1655936985
